[{"zip":"4020","city":"Linz","country":"AT","long":"14.29242","lat":"48.28842","state":"Oberösterreich"},{"zip":"4020","city":"Zaubertal","country":"AT","long":"14.25702","lat":"48.30092","state":"Oberösterreich"},{"zip":"4030","city":"Linz","country":"AT","long":"14.32543","lat":"48.24958","state":"Oberösterreich"},{"zip":"4040","city":"Altlichtenberg","country":"AT","long":"14.25740","lat":"48.35629","state":"Oberösterreich"},{"zip":"4040","city":"Neulichtenberg","country":"AT","long":"14.25593","lat":"48.34288","state":"Oberösterreich"},{"zip":"4040","city":"Linz","country":"AT","long":"14.28543","lat":"48.33181","state":"Oberösterreich"},{"zip":"4040","city":"Asberg","country":"AT","long":"14.24918","lat":"48.36723","state":"Oberösterreich"},{"zip":"4040","city":"Katzgraben","country":"AT","long":"14.34215","lat":"48.34821","state":"Oberösterreich"},{"zip":"4040","city":"Plesching","country":"AT","long":"14.33597","lat":"48.32284","state":"Oberösterreich"},{"zip":"4040","city":"Türkstetten","country":"AT","long":"14.22259","lat":"48.36928","state":"Oberösterreich"},{"zip":"4040","city":"Hochbuchedt","country":"AT","long":"14.29901","lat":"48.38950","state":"Oberösterreich"},{"zip":"4040","city":"Kammerschlag","country":"AT","long":"14.24701","lat":"48.39045","state":"Oberösterreich"},{"zip":"4040","city":"Kitzelsbach","country":"AT","long":"14.30319","lat":"48.37282","state":"Oberösterreich"},{"zip":"4040","city":"Großamberg","country":"AT","long":"14.23094","lat":"48.33584","state":"Oberösterreich"},{"zip":"4040","city":"Mühlberg","country":"AT"},{"zip":"4040","city":"Neulichtenberg","country":"AT","long":"14.25593","lat":"48.34288","state":"Oberösterreich"},{"zip":"4040","city":"Haselgraben","country":"AT","long":"0.00000","lat":"0.00000","state":"Oberösterreich"},{"zip":"4040","city":"Gramastetten","country":"AT","long":"14.24403","lat":"48.34579","state":"Oberösterreich"},{"zip":"4040","city":"Oberbairing","country":"AT","long":"14.29880","lat":"48.36366","state":"Oberösterreich"},{"zip":"4040","city":"Pöstlingberg","country":"AT","long":"14.25648","lat":"48.32726","state":"Oberösterreich"},{"zip":"4048","city":"Oberpuchenau","country":"AT","long":"14.21816","lat":"48.31856","state":"Oberösterreich"},{"zip":"4048","city":"Großamberg","country":"AT","long":"14.23094","lat":"48.33584","state":"Oberösterreich"},{"zip":"4048","city":"Pöstlingberg","country":"AT","long":"14.23469","lat":"48.31580","state":"Oberösterreich"},{"zip":"4048","city":"Puchenau","country":"AT","long":"14.23388","lat":"48.31554","state":"Oberösterreich"},{"zip":"4048","city":"Unterpuchenau","country":"AT","long":"14.23821","lat":"48.32298","state":"Oberösterreich"},{"zip":"4050","city":"Traun","country":"AT","long":"14.24123","lat":"48.22748","state":"Oberösterreich"},{"zip":"4050","city":"Neubau","country":"AT","long":"14.24211","lat":"48.22800","state":"Oberösterreich"},{"zip":"4050","city":"Sankt Martin","country":"AT","long":"14.25806","lat":"48.24427","state":"Oberösterreich"},{"zip":"4050","city":"Oedt","country":"AT","long":"14.05091","lat":"48.60202","state":"Oberösterreich"},{"zip":"4050","city":"Sankt Dionysen","country":"AT","long":"14.25377","lat":"48.22895","state":"Oberösterreich"},{"zip":"4052","city":"Kremsdorf","country":"AT","long":"14.26005","lat":"48.20310","state":"Oberösterreich"},{"zip":"4052","city":"Audorf","country":"AT","long":"14.06939","lat":"48.33218","state":"Oberösterreich"},{"zip":"4052","city":"Grabwinkel","country":"AT"},{"zip":"4052","city":"Fürhappen","country":"AT","long":"14.27931","lat":"48.20408","state":"Oberösterreich"},{"zip":"4052","city":"Linz","country":"AT"},{"zip":"4052","city":"Ansfelden","country":"AT","long":"14.28743","lat":"48.21646","state":"Oberösterreich"},{"zip":"4052","city":"Freindorf","country":"AT"},{"zip":"4052","city":"Fleckendorf","country":"AT","long":"14.29833","lat":"48.19374","state":"Oberösterreich"},{"zip":"4052","city":"Vordermayrberg","country":"AT","long":"0.00000","lat":"0.00000","state":"Oberösterreich"},{"zip":"4053","city":"Haid","country":"AT","long":"14.25037","lat":"48.20069","state":"Oberösterreich"},{"zip":"4053","city":"Kremsdorf","country":"AT","long":"14.26005","lat":"48.20310","state":"Oberösterreich"},{"zip":"4053","city":"Moos","country":"AT"},{"zip":"4053","city":"Nettingsdorf","country":"AT","long":"14.26751","lat":"48.18307","state":"Oberösterreich"},{"zip":"4053","city":"Weißenberg","country":"AT","long":"0.00000","lat":"0.00000","state":"Oberösterreich"},{"zip":"4053","city":"Rapperswinkel","country":"AT","long":"14.25968","lat":"48.20835","state":"Oberösterreich"},{"zip":"4053","city":"Neuhofen an der Krems","country":"AT"},{"zip":"4053","city":"Berg","country":"AT"},{"zip":"4055","city":"Sankt Leonhard","country":"AT","long":"14.19834","lat":"48.18158","state":"Oberösterreich"},{"zip":"4055","city":"Köttsdorf","country":"AT","long":"0.00000","lat":"0.00000","state":"Oberösterreich"},{"zip":"4055","city":"Oberschnadt","country":"AT"},{"zip":"4055","city":"Zeitlham","country":"AT","long":"14.19982","lat":"48.16651","state":"Oberösterreich"},{"zip":"4055","city":"Unterschnadt","country":"AT","long":"14.23953","lat":"48.16932","state":"Oberösterreich"},{"zip":"4055","city":"Dörfl","country":"AT"},{"zip":"4055","city":"Pucking","country":"AT"},{"zip":"4055","city":"Hasenufer","country":"AT"},{"zip":"4055","city":"Sammersdorf","country":"AT"},{"zip":"4055","city":"Sipbach","country":"AT","long":"14.24983","lat":"48.20957","state":"Oberösterreich"},{"zip":"4060","city":"Leonding","country":"AT","long":"14.25050","lat":"48.27323","state":"Oberösterreich"},{"zip":"4060","city":"Untergaumberg","country":"AT","long":"0.00000","lat":"0.00000","state":"Oberösterreich"},{"zip":"4060","city":"Bergham","country":"AT","long":"14.13073","lat":"48.29311","state":"Oberösterreich"},{"zip":"4060","city":"Enzenwinkl","country":"AT","long":"0.00000","lat":"0.00000","state":"Oberösterreich"},{"zip":"4060","city":"Imberg","country":"AT","long":"0.00000","lat":"0.00000","state":"Oberösterreich"},{"zip":"4060","city":"Sankt Isidor","country":"AT","long":"0.00000","lat":"0.00000","state":"Oberösterreich"},{"zip":"4060","city":"Aichberg","country":"AT","long":"13.45184","lat":"48.33261","state":"Oberösterreich"},{"zip":"4060","city":"Berg","country":"AT","long":"14.25250","lat":"48.27159","state":"Oberösterreich"},{"zip":"4060","city":"Buchberg","country":"AT","long":"0.00000","lat":"0.00000","state":"Oberösterreich"},{"zip":"4060","city":"Friesenegg","country":"AT","long":"14.24424","lat":"48.30154","state":"Oberösterreich"},{"zip":"4060","city":"Gaumberg","country":"AT","long":"14.26662","lat":"48.28099","state":"Oberösterreich"},{"zip":"4060","city":"Alharting","country":"AT","long":"14.24232","lat":"48.28510","state":"Oberösterreich"},{"zip":"4060","city":"Haag","country":"AT"},{"zip":"4060","city":"Staudach","country":"AT","long":"14.14325","lat":"48.23780","state":"Oberösterreich"},{"zip":"4060","city":"Hart","country":"AT"},{"zip":"4060","city":"Holzheim","country":"AT","long":"14.24593","lat":"48.29392","state":"Oberösterreich"},{"zip":"4060","city":"Jetzing","country":"AT","long":"15.85185","lat":"48.26012","state":"Oberösterreich"},{"zip":"4060","city":"Wilhering","country":"AT"},{"zip":"4060","city":"Doppl","country":"AT","long":"0.00000","lat":"0.00000","state":"Oberösterreich"},{"zip":"4060","city":"Rufling","country":"AT"},{"zip":"4060","city":"Felling","country":"AT"},{"zip":"4060","city":"Reith","country":"AT"},{"zip":"4061","city":"Hitzing","country":"AT","long":"14.19896","lat":"48.27193","state":"Oberösterreich"},{"zip":"4061","city":"Rufling","country":"AT"},{"zip":"4061","city":"Langholzfeld","country":"AT","long":"0.00000","lat":"0.00000","state":"Oberösterreich"},{"zip":"4061","city":"Wagram","country":"AT"},{"zip":"4061","city":"Aistental","country":"AT","long":"0.00000","lat":"0.00000","state":"Oberösterreich"},{"zip":"4061","city":"Thurnharting","country":"AT"},{"zip":"4061","city":"Pasching","country":"AT","long":"14.22677","lat":"48.24779","state":"Oberösterreich"},{"zip":"4062","city":"Niederbuch","country":"AT","long":"14.15097","lat":"48.24799","state":"Oberösterreich"},{"zip":"4062","city":"Axberg","country":"AT","long":"0.00000","lat":"0.00000","state":"Oberösterreich"},{"zip":"4062","city":"Niederfeld","country":"AT"},{"zip":"4062","city":"Thening","country":"AT","long":"14.16999","lat":"48.25574","state":"Oberösterreich"},{"zip":"4062","city":"Aichberg","country":"AT","long":"13.45184","lat":"48.33261","state":"Oberösterreich"},{"zip":"4062","city":"Au","country":"AT","long":"0.00000","lat":"0.00000","state":"Oberösterreich"},{"zip":"4062","city":"Kirchberg","country":"AT"},{"zip":"4062","city":"Schauersfreiling","country":"AT","long":"14.13493","lat":"48.24863","state":"Oberösterreich"},{"zip":"4062","city":"Gumpolding","country":"AT","long":"14.14628","lat":"48.26880","state":"Oberösterreich"},{"zip":"4062","city":"Thürnau","country":"AT","long":"14.16944","lat":"48.27500","state":"Oberösterreich"},{"zip":"4062","city":"Intenham","country":"AT","long":"14.12012","lat":"48.24624","state":"Oberösterreich"},{"zip":"4063","city":"Gerersdorf","country":"AT"},{"zip":"4063","city":"Hörsching","country":"AT"},{"zip":"4063","city":"Aistental","country":"AT","long":"0.00000","lat":"0.00000","state":"Oberösterreich"},{"zip":"4063","city":"Holzleiten","country":"AT"},{"zip":"4063","city":"&#214;hndorf","country":"AT"},{"zip":"4063","city":"Rudelsdorf","country":"AT","long":"0.00000","lat":"0.00000","state":"Oberösterreich"},{"zip":"4063","city":"Rutzing","country":"AT","long":"14.18351","lat":"48.20944","state":"Oberösterreich"},{"zip":"4063","city":"Breitbrunn","country":"AT"},{"zip":"4063","city":"Haid","country":"AT"},{"zip":"4063","city":"Lindenlach","country":"AT","long":"0.00000","lat":"0.00000","state":"Oberösterreich"},{"zip":"4063","city":"Neubau","country":"AT"},{"zip":"4063","city":"Frindorf","country":"AT","long":"14.02837","lat":"48.55378","state":"Oberösterreich"},{"zip":"4063","city":"Neubau","country":"AT"},{"zip":"4064","city":"Freiling","country":"AT"},{"zip":"4064","city":"Oberbachham","country":"AT","long":"14.11701","lat":"48.22659","state":"Oberösterreich"},{"zip":"4064","city":"Oberndorf","country":"AT"},{"zip":"4064","city":"Trindorf","country":"AT","long":"14.15605","lat":"48.21925","state":"Oberösterreich"},{"zip":"4064","city":"Niederbachham","country":"AT","long":"14.14707","lat":"48.21003","state":"Oberösterreich"},{"zip":"4064","city":"Oberbuch","country":"AT","long":"14.12949","lat":"48.23217","state":"Oberösterreich"},{"zip":"4064","city":"Staudach","country":"AT","long":"14.14325","lat":"48.23780","state":"Oberösterreich"},{"zip":"4064","city":"Hausleiten","country":"AT"},{"zip":"4064","city":"Kirchstetten","country":"AT"},{"zip":"4064","city":"Mitterbachham","country":"AT","long":"14.13560","lat":"48.21908","state":"Oberösterreich"},{"zip":"4064","city":"Oftering","country":"AT"},{"zip":"4064","city":"Unterholz","country":"AT","long":"0.00000","lat":"0.00000","state":"Oberösterreich"},{"zip":"4070","city":"Seebach","country":"AT","long":"0.00000","lat":"0.00000","state":"Oberösterreich"},{"zip":"4070","city":"Sperneck","country":"AT","long":"0.00000","lat":"0.00000","state":"Oberösterreich"},{"zip":"4070","city":"Grüben","country":"AT","long":"13.81597","lat":"47.60627","state":"Oberösterreich"},{"zip":"4070","city":"Au bei Brandstatt","country":"AT","long":"0.00000","lat":"0.00000","state":"Oberösterreich"},{"zip":"4070","city":"Taubenbrunn","country":"AT","long":"14.03469","lat":"48.30228","state":"Oberösterreich"},{"zip":"4070","city":"Fraham","country":"AT","long":"14.03265","lat":"48.29150","state":"Oberösterreich"},{"zip":"4070","city":"Oberrudling","country":"AT","long":"13.97072","lat":"48.30813","state":"Oberösterreich"},{"zip":"4070","city":"Wackersbach","country":"AT","long":"13.97477","lat":"48.29412","state":"Oberösterreich"},{"zip":"4070","city":"Wagrein","country":"AT","long":"0.00000","lat":"0.00000","state":"Oberösterreich"},{"zip":"4070","city":"Brandstatt","country":"AT","long":"0.00000","lat":"0.00000","state":"Oberösterreich"},{"zip":"4070","city":"Hörstorf","country":"AT","long":"13.99878","lat":"48.28298","state":"Oberösterreich"},{"zip":"4070","city":"Kappelding","country":"AT","long":"0.00000","lat":"0.00000","state":"Oberösterreich"},{"zip":"4070","city":"Oberhillinglah","country":"AT","long":"14.00911","lat":"48.29785","state":"Oberösterreich"},{"zip":"4070","city":"Kalköfen","country":"AT","long":"13.98074","lat":"48.27690","state":"Oberösterreich"},{"zip":"4070","city":"Limberg","country":"AT","long":"14.01726","lat":"48.30749","state":"Oberösterreich"},{"zip":"4070","city":"Puchet","country":"AT","long":"0.00000","lat":"0.00000","state":"Oberösterreich"},{"zip":"4070","city":"Unterleiten","country":"AT","long":"0.00000","lat":"0.00000","state":"Oberösterreich"},{"zip":"4070","city":"Gstöttenau","country":"AT","long":"0.00000","lat":"0.00000","state":"Oberösterreich"},{"zip":"4070","city":"Leumühle","country":"AT","long":"0.00000","lat":"0.00000","state":"Oberösterreich"},{"zip":"4070","city":"Unterschaden","country":"AT","long":"14.03987","lat":"48.31756","state":"Oberösterreich"},{"zip":"4070","city":"Wörth","country":"AT"},{"zip":"4070","city":"Lahöfen","country":"AT","long":"0.00000","lat":"0.00000","state":"Oberösterreich"},{"zip":"4070","city":"Auhof","country":"AT","long":"0.00000","lat":"0.00000","state":"Oberösterreich"},{"zip":"4070","city":"Pupping","country":"AT","long":"14.02051","lat":"48.32247","state":"Oberösterreich"},{"zip":"4070","city":"Polsenz","country":"AT","long":"13.96532","lat":"48.25314","state":"Oberösterreich"},{"zip":"4070","city":"Unterrudling","country":"AT","long":"13.98910","lat":"48.30958","state":"Oberösterreich"},{"zip":"4070","city":"Raffelding","country":"AT","long":"14.04353","lat":"48.29080","state":"Oberösterreich"},{"zip":"4070","city":"Gstöttenau","country":"AT","long":"0.00000","lat":"0.00000","state":"Oberösterreich"},{"zip":"4070","city":"Pupping","country":"AT","long":"14.02051","lat":"48.32247","state":"Oberösterreich"},{"zip":"4070","city":"Hartkirchen","country":"AT","long":"14.02740","lat":"48.33020","state":"Oberösterreich"},{"zip":"4070","city":"Au bei hohen Steg","country":"AT","long":"12.83546","lat":"47.21341","state":"Oberösterreich"},{"zip":"4070","city":"Friedlau","country":"AT","long":"0.00000","lat":"0.00000","state":"Oberösterreich"},{"zip":"4070","city":"Inn","country":"AT"},{"zip":"4070","city":"Ranzing","country":"AT","long":"0.00000","lat":"0.00000","state":"Oberösterreich"},{"zip":"4070","city":"Deinham","country":"AT","long":"0.00000","lat":"0.00000","state":"Oberösterreich"},{"zip":"4070","city":"Altau","country":"AT","long":"0.00000","lat":"0.00000","state":"Oberösterreich"},{"zip":"4070","city":"Goldenberg","country":"AT","long":"0.00000","lat":"0.00000","state":"Oberösterreich"},{"zip":"4070","city":"Waschpoint","country":"AT","long":"14.01307","lat":"48.32150","state":"Oberösterreich"},{"zip":"4070","city":"Eferding","country":"AT","long":"14.01653","lat":"48.30738","state":"Oberösterreich"},{"zip":"4070","city":"Trattwörth","country":"AT","long":"0.00000","lat":"0.00000","state":"Oberösterreich"},{"zip":"4070","city":"Unterhillinglah","country":"AT","long":"14.02457","lat":"48.29392","state":"Oberösterreich"},{"zip":"4070","city":"Gstocket","country":"AT","long":"14.11005","lat":"48.29944","state":"Oberösterreich"},{"zip":"4070","city":"Hinzenbach","country":"AT"},{"zip":"4070","city":"Stieglhöfen","country":"AT","long":"0.00000","lat":"0.00000","state":"Oberösterreich"},{"zip":"4070","city":"Oberschaden","country":"AT","long":"14.04318","lat":"48.30639","state":"Oberösterreich"},{"zip":"4070","city":"Kleinstroheim","country":"AT","long":"13.96091","lat":"48.31018","state":"Oberösterreich"},{"zip":"4070","city":"Güttlfeld","country":"AT","long":"0.00000","lat":"0.00000","state":"Oberösterreich"},{"zip":"4070","city":"Simbach","country":"AT"},{"zip":"4072","city":"Aham","country":"AT","long":"0.00000","lat":"0.00000","state":"Oberösterreich"},{"zip":"4072","city":"Kleinhart","country":"AT","long":"14.11751","lat":"48.26610","state":"Oberösterreich"},{"zip":"4072","city":"Annaberg","country":"AT"},{"zip":"4072","city":"Kranzing","country":"AT","long":"14.09483","lat":"48.24064","state":"Oberösterreich"},{"zip":"4072","city":"Großhart","country":"AT","long":"15.95167","lat":"47.16441","state":"Oberösterreich"},{"zip":"4072","city":"Bergham","country":"AT","long":"14.13073","lat":"48.29311","state":"Oberösterreich"},{"zip":"4072","city":"Hartheim","country":"AT"},{"zip":"4072","city":"Straßham","country":"AT","long":"14.15733","lat":"48.28037","state":"Oberösterreich"},{"zip":"4072","city":"Oberhartheim","country":"AT","long":"0.00000","lat":"0.00000","state":"Oberösterreich"},{"zip":"4072","city":"Weidach","country":"AT","long":"14.10027","lat":"48.28334","state":"Oberösterreich"},{"zip":"4072","city":"Winkeln","country":"AT"},{"zip":"4072","city":"Staudach","country":"AT","long":"14.14325","lat":"48.23780","state":"Oberösterreich"},{"zip":"4072","city":"Straß","country":"AT"},{"zip":"4072","city":"Ufer","country":"AT","long":"14.11107","lat":"48.25961","state":"Oberösterreich"},{"zip":"4072","city":"Alkoven","country":"AT","long":"14.11988","lat":"48.28426","state":"Oberösterreich"},{"zip":"4072","city":"Emling","country":"AT","long":"14.07135","lat":"48.28270","state":"Oberösterreich"},{"zip":"4072","city":"Polsing","country":"AT","long":"0.00000","lat":"0.00000","state":"Oberösterreich"},{"zip":"4072","city":"Puchham","country":"AT","long":"14.06191","lat":"48.26335","state":"Oberösterreich"},{"zip":"4072","city":"Forst","country":"AT"},{"zip":"4072","city":"Gstocket","country":"AT","long":"14.11005","lat":"48.29944","state":"Oberösterreich"},{"zip":"4073","city":"Dörnbach","country":"AT"},{"zip":"4073","city":"Lohnharting","country":"AT","long":"14.18028","lat":"48.29091","state":"Oberösterreich"},{"zip":"4073","city":"Schönering","country":"AT"},{"zip":"4073","city":"Appersberg","country":"AT"},{"zip":"4073","city":"Mühlbach","country":"AT"},{"zip":"4073","city":"Edramsberg","country":"AT","long":"14.17471","lat":"48.31155","state":"Oberösterreich"},{"zip":"4073","city":"Katzing","country":"AT","long":"0.00000","lat":"0.00000","state":"Oberösterreich"},{"zip":"4073","city":"Reith","country":"AT"},{"zip":"4073","city":"Winkeln","country":"AT"},{"zip":"4073","city":"Fall","country":"AT","long":"0.00000","lat":"0.00000","state":"Oberösterreich"},{"zip":"4073","city":"Hitzing","country":"AT","long":"14.19896","lat":"48.27193","state":"Oberösterreich"},{"zip":"4073","city":"Ufer","country":"AT","long":"14.11107","lat":"48.25961","state":"Oberösterreich"},{"zip":"4073","city":"Höf","country":"AT"},{"zip":"4073","city":"Thalham","country":"AT"},{"zip":"4073","city":"Wilhering","country":"AT","long":"14.17027","lat":"48.29573","state":"Oberösterreich"},{"zip":"4074","city":"Gstocket","country":"AT","long":"14.11005","lat":"48.29944","state":"Oberösterreich"},{"zip":"4074","city":"Reith","country":"AT"},{"zip":"4074","city":"Taubing","country":"AT","long":"0.00000","lat":"0.00000","state":"Oberösterreich"},{"zip":"4074","city":"Mayrhof","country":"AT"},{"zip":"4074","city":"Wögern","country":"AT","long":"13.94511","lat":"48.36882","state":"Oberösterreich"},{"zip":"4074","city":"Schnellersdorf","country":"AT","long":"0.00000","lat":"0.00000","state":"Oberösterreich"},{"zip":"4074","city":"Stroheim","country":"AT","long":"13.98125","lat":"48.33066","state":"Oberösterreich"},{"zip":"4074","city":"Birihub","country":"AT","long":"0.00000","lat":"0.00000","state":"Oberösterreich"},{"zip":"4074","city":"Windischdorf","country":"AT","long":"13.93303","lat":"48.35579","state":"Oberösterreich"},{"zip":"4074","city":"Schaumberg","country":"AT","long":"13.97436","lat":"48.34528","state":"Oberösterreich"},{"zip":"4074","city":"Götzenberg","country":"AT","long":"0.00000","lat":"0.00000","state":"Oberösterreich"},{"zip":"4074","city":"Knieparz ob der Leiten","country":"AT"},{"zip":"4074","city":"Großstroheim","country":"AT","long":"13.96797","lat":"48.32254","state":"Oberösterreich"},{"zip":"4074","city":"Kleinstroheim","country":"AT","long":"13.96091","lat":"48.31018","state":"Oberösterreich"},{"zip":"4074","city":"Kobling","country":"AT"},{"zip":"4074","city":"Mitterstroheim","country":"AT","long":"13.96796","lat":"48.32983","state":"Oberösterreich"},{"zip":"4074","city":"Troß","country":"AT","long":"0.00000","lat":"0.00000","state":"Oberösterreich"},{"zip":"4074","city":"Gmeinholz","country":"AT","long":"0.00000","lat":"0.00000","state":"Oberösterreich"},{"zip":"4074","city":"Stallberg","country":"AT","long":"0.00000","lat":"0.00000","state":"Oberösterreich"},{"zip":"4075","city":"Aumühle","country":"AT","long":"0.00000","lat":"0.00000","state":"Oberösterreich"},{"zip":"4075","city":"Steinholz","country":"AT"},{"zip":"4076","city":"Fürneredt","country":"AT","long":"0.00000","lat":"0.00000","state":"Oberösterreich"},{"zip":"4076","city":"Karling","country":"AT"},{"zip":"4076","city":"Leopoldsberg","country":"AT","long":"13.95098","lat":"48.27359","state":"Oberösterreich"},{"zip":"4076","city":"Wieshof","country":"AT","long":"15.34981","lat":"48.94246","state":"Oberösterreich"},{"zip":"4076","city":"Sankt Marienkirchen an der Polsenz","country":"AT","long":"13.93454","lat":"48.26348","state":"Oberösterreich"},{"zip":"4076","city":"Unterfreundorf","country":"AT","long":"13.94367","lat":"48.25742","state":"Oberösterreich"},{"zip":"4076","city":"Lengau","country":"AT"},{"zip":"4076","city":"Untergrub","country":"AT"},{"zip":"4076","city":"Valtau","country":"AT","long":"0.00000","lat":"0.00000","state":"Oberösterreich"},{"zip":"4076","city":"Doppl","country":"AT","long":"0.00000","lat":"0.00000","state":"Oberösterreich"},{"zip":"4076","city":"Obergrub","country":"AT"},{"zip":"4076","city":"Eben","country":"AT","long":"13.93449","lat":"48.26360","state":"Oberösterreich"},{"zip":"4076","city":"Furth","country":"AT"},{"zip":"4076","city":"Holzwiesen","country":"AT","long":"0.00000","lat":"0.00000","state":"Oberösterreich"},{"zip":"4076","city":"Pernau","country":"AT","long":"14.50495","lat":"48.44270","state":"Oberösterreich"},{"zip":"4076","city":"Polsenz","country":"AT","long":"13.96532","lat":"48.25314","state":"Oberösterreich"},{"zip":"4076","city":"Kirchholz","country":"AT","long":"0.00000","lat":"0.00000","state":"Oberösterreich"},{"zip":"4076","city":"Sommersberg","country":"AT","long":"0.00000","lat":"0.00000","state":"Oberösterreich"},{"zip":"4081","city":"Hinterberg","country":"AT"},{"zip":"4081","city":"Hörmannsedt","country":"AT","long":"0.00000","lat":"0.00000","state":"Oberösterreich"},{"zip":"4081","city":"Hart ob Haizing","country":"AT","long":"13.99141","lat":"48.38488","state":"Oberösterreich"},{"zip":"4081","city":"Würting","country":"AT","long":"13.98673","lat":"48.39843","state":"Oberösterreich"},{"zip":"4081","city":"Hartkirchen","country":"AT","long":"13.99102","lat":"48.37161","state":"Oberösterreich"},{"zip":"4081","city":"Hilkering","country":"AT","long":"13.96431","lat":"48.36622","state":"Oberösterreich"},{"zip":"4081","city":"Kellnering","country":"AT"},{"zip":"4081","city":"Rienberg","country":"AT","long":"0.00000","lat":"0.00000","state":"Oberösterreich"},{"zip":"4081","city":"Schönleiten","country":"AT","long":"0.00000","lat":"0.00000","state":"Oberösterreich"},{"zip":"4081","city":"Vornholz","country":"AT","long":"14.01187","lat":"48.38451","state":"Oberösterreich"},{"zip":"4081","city":"Wolfsfurth","country":"AT","long":"0.00000","lat":"0.00000","state":"Oberösterreich"},{"zip":"4081","city":"Gstaltenhof","country":"AT","long":"0.00000","lat":"0.00000","state":"Oberösterreich"},{"zip":"4081","city":"Dunzing","country":"AT","long":"0.00000","lat":"0.00000","state":"Oberösterreich"},{"zip":"4081","city":"Knieparz unter der Leithen","country":"AT"},{"zip":"4081","city":"Poxham","country":"AT","long":"13.96945","lat":"48.35752","state":"Oberösterreich"},{"zip":"4081","city":"Zagl","country":"AT","long":"0.00000","lat":"0.00000","state":"Oberösterreich"},{"zip":"4081","city":"Gfehret","country":"AT","long":"0.00000","lat":"0.00000","state":"Oberösterreich"},{"zip":"4081","city":"Hinteraigen","country":"AT","long":"13.96035","lat":"48.40957","state":"Oberösterreich"},{"zip":"4081","city":"Karling","country":"AT"},{"zip":"4081","city":"Lacken","country":"AT"},{"zip":"4081","city":"Mußbach","country":"AT","long":"13.95718","lat":"48.39673","state":"Oberösterreich"},{"zip":"4081","city":"Oed in Bergen","country":"AT"},{"zip":"4081","city":"Pfaffing","country":"AT"},{"zip":"4081","city":"Schaumberg","country":"AT","long":"13.97436","lat":"48.34528","state":"Oberösterreich"},{"zip":"4081","city":"Senghübl","country":"AT","long":"0.00000","lat":"0.00000","state":"Oberösterreich"},{"zip":"4081","city":"Steinwand","country":"AT","long":"0.00000","lat":"0.00000","state":"Oberösterreich"},{"zip":"4081","city":"Deinham","country":"AT","long":"0.00000","lat":"0.00000","state":"Oberösterreich"},{"zip":"4081","city":"Hachlham","country":"AT","long":"13.97196","lat":"48.38150","state":"Oberösterreich"},{"zip":"4081","city":"Hart ob Hacking","country":"AT"},{"zip":"4081","city":"Dorf","country":"AT","long":"14.10956","lat":"48.50256","state":"Oberösterreich"},{"zip":"4081","city":"Gstaltenhof","country":"AT","long":"0.00000","lat":"0.00000","state":"Oberösterreich"},{"zip":"4081","city":"Hacking","country":"AT"},{"zip":"4081","city":"Haizing","country":"AT","long":"13.99141","lat":"48.38488","state":"Oberösterreich"},{"zip":"4081","city":"Koppl","country":"AT"},{"zip":"4081","city":"Paching","country":"AT","long":"0.00000","lat":"0.00000","state":"Oberösterreich"},{"zip":"4081","city":"Rathen","country":"AT","long":"0.00000","lat":"0.00000","state":"Oberösterreich"},{"zip":"4081","city":"Reith","country":"AT"},{"zip":"4081","city":"Hainbach","country":"AT","long":"16.19988","lat":"48.23428","state":"Oberösterreich"},{"zip":"4082","city":"Sommerberg","country":"AT","long":"0.00000","lat":"0.00000","state":"Oberösterreich"},{"zip":"4082","city":"Ruprechting","country":"AT"},{"zip":"4082","city":"Aschach an der Donau","country":"AT"},{"zip":"4083","city":"Dunzing","country":"AT","long":"0.00000","lat":"0.00000","state":"Oberösterreich"},{"zip":"4083","city":"Gemersdorf","country":"AT","long":"13.89968","lat":"48.40276","state":"Oberösterreich"},{"zip":"4083","city":"Schlögen","country":"AT"},{"zip":"4083","city":"Schlögenleiten","country":"AT","long":"0.00000","lat":"0.00000","state":"Oberösterreich"},{"zip":"4083","city":"Starz","country":"AT","long":"0.00000","lat":"0.00000","state":"Oberösterreich"},{"zip":"4083","city":"Sonnleiten","country":"AT","long":"0.00000","lat":"0.00000","state":"Oberösterreich"},{"zip":"4083","city":"Bach","country":"AT"},{"zip":"4083","city":"Inzell","country":"AT","long":"0.00000","lat":"0.00000","state":"Oberösterreich"},{"zip":"4083","city":"Komas","country":"AT","long":"0.00000","lat":"0.00000","state":"Oberösterreich"},{"zip":"4083","city":"Linetshub","country":"AT"},{"zip":"4083","city":"Untergschwendt","country":"AT","long":"13.90729","lat":"48.43793","state":"Oberösterreich"},{"zip":"4083","city":"Bäckenhof","country":"AT","long":"0.00000","lat":"0.00000","state":"Oberösterreich"},{"zip":"4083","city":"Eckersdorf","country":"AT","long":"0.00000","lat":"0.00000","state":"Oberösterreich"},{"zip":"4083","city":"Mannsdorf","country":"AT","long":"13.88806","lat":"48.43344","state":"Oberösterreich"},{"zip":"4083","city":"Mitterberg","country":"AT"},{"zip":"4083","city":"Berg","country":"AT"},{"zip":"4083","city":"Obergschwendt","country":"AT","long":"13.90434","lat":"48.44426","state":"Oberösterreich"},{"zip":"4083","city":"Oberhub","country":"AT","long":"0.00000","lat":"0.00000","state":"Oberösterreich"},{"zip":"4083","city":"Wies","country":"AT"},{"zip":"4083","city":"Au","country":"AT","long":"0.00000","lat":"0.00000","state":"Oberösterreich"},{"zip":"4083","city":"Pamet","country":"AT","long":"0.00000","lat":"0.00000","state":"Oberösterreich"},{"zip":"4083","city":"Pühret","country":"AT"},{"zip":"4083","city":"Wiesing","country":"AT"},{"zip":"4083","city":"Donauleiten","country":"AT","long":"0.00000","lat":"0.00000","state":"Oberösterreich"},{"zip":"4083","city":"Kobling","country":"AT"},{"zip":"4083","city":"Kolleck","country":"AT","long":"0.00000","lat":"0.00000","state":"Oberösterreich"},{"zip":"4083","city":"Reith","country":"AT"},{"zip":"4083","city":"Schauerdoppl","country":"AT","long":"0.00000","lat":"0.00000","state":"Oberösterreich"},{"zip":"4083","city":"Parz","country":"AT","long":"13.21536","lat":"48.03577","state":"Oberösterreich"},{"zip":"4083","city":"Grub","country":"AT"},{"zip":"4083","city":"Hinterberg","country":"AT"},{"zip":"4083","city":"Lehen","country":"AT"},{"zip":"4083","city":"Mühlbach","country":"AT"},{"zip":"4083","city":"Oedt","country":"AT","long":"14.05091","lat":"48.60202","state":"Oberösterreich"},{"zip":"4083","city":"Sieberstal","country":"AT","long":"0.00000","lat":"0.00000","state":"Oberösterreich"},{"zip":"4083","city":"Dorf","country":"AT","long":"14.10956","lat":"48.50256","state":"Oberösterreich"},{"zip":"4083","city":"Haibach ob der Donau","country":"AT"},{"zip":"4083","city":"Moos","country":"AT"},{"zip":"4083","city":"Pichl","country":"AT"},{"zip":"4083","city":"Rennersdorf","country":"AT"},{"zip":"4084","city":"Dittersdorf","country":"AT","long":"13.84324","lat":"48.39496","state":"Oberösterreich"},{"zip":"4084","city":"Dörfledt","country":"AT","long":"0.00000","lat":"0.00000","state":"Oberösterreich"},{"zip":"4084","city":"Freiling","country":"AT"},{"zip":"4084","city":"Kropfleiten","country":"AT","long":"0.00000","lat":"0.00000","state":"Oberösterreich"},{"zip":"4084","city":"Mühlgraben","country":"AT"},{"zip":"4084","city":"St. Agatha","country":"AT"},{"zip":"4084","city":"Ernleiten","country":"AT","long":"0.00000","lat":"0.00000","state":"Oberösterreich"},{"zip":"4084","city":"Etzing","country":"AT","long":"13.86408","lat":"48.40054","state":"Oberösterreich"},{"zip":"4084","city":"Hundsdorf","country":"AT"},{"zip":"4084","city":"Scheiblberg","country":"AT","long":"13.84140","lat":"48.37971","state":"Oberösterreich"},{"zip":"4084","city":"Waid","country":"AT","long":"0.00000","lat":"0.00000","state":"Oberösterreich"},{"zip":"4084","city":"Hölzing","country":"AT","long":"13.83781","lat":"48.40688","state":"Oberösterreich"},{"zip":"4084","city":"Hollerbrunn","country":"AT","long":"0.00000","lat":"0.00000","state":"Oberösterreich"},{"zip":"4084","city":"Löwengrub","country":"AT","long":"0.00000","lat":"0.00000","state":"Oberösterreich"},{"zip":"4084","city":"Miniberg","country":"AT","long":"0.00000","lat":"0.00000","state":"Oberösterreich"},{"zip":"4084","city":"Uring","country":"AT","long":"0.00000","lat":"0.00000","state":"Oberösterreich"},{"zip":"4084","city":"Holzwühr","country":"AT","long":"0.00000","lat":"0.00000","state":"Oberösterreich"},{"zip":"4084","city":"Löcking","country":"AT","long":"0.00000","lat":"0.00000","state":"Oberösterreich"},{"zip":"4084","city":"Sattlberg","country":"AT","long":"0.00000","lat":"0.00000","state":"Oberösterreich"},{"zip":"4084","city":"Schabetsberg","country":"AT","long":"0.00000","lat":"0.00000","state":"Oberösterreich"},{"zip":"4084","city":"Gschwendt","country":"AT"},{"zip":"4084","city":"Pötzling","country":"AT","long":"0.00000","lat":"0.00000","state":"Oberösterreich"},{"zip":"4084","city":"Riesching","country":"AT","long":"13.86016","lat":"48.38650","state":"Oberösterreich"},{"zip":"4084","city":"Bräuleiten","country":"AT","long":"0.00000","lat":"0.00000","state":"Oberösterreich"},{"zip":"4084","city":"Dunzing","country":"AT","long":"0.00000","lat":"0.00000","state":"Oberösterreich"},{"zip":"4084","city":"Gmein","country":"AT","long":"0.00000","lat":"0.00000","state":"Oberösterreich"},{"zip":"4084","city":"Götzling","country":"AT","long":"13.89084","lat":"48.39580","state":"Oberösterreich"},{"zip":"4084","city":"Hanging","country":"AT","long":"13.82393","lat":"48.60526","state":"Oberösterreich"},{"zip":"4084","city":"Hatzing","country":"AT","long":"0.00000","lat":"0.00000","state":"Oberösterreich"},{"zip":"4084","city":"Parz","country":"AT","long":"13.21536","lat":"48.03577","state":"Oberösterreich"},{"zip":"4084","city":"Bäckenhof","country":"AT","long":"0.00000","lat":"0.00000","state":"Oberösterreich"},{"zip":"4084","city":"Königsdorf","country":"AT"},{"zip":"4084","city":"Scharzeredt","country":"AT","long":"0.00000","lat":"0.00000","state":"Oberösterreich"},{"zip":"4084","city":"Sonnleiten","country":"AT","long":"0.00000","lat":"0.00000","state":"Oberösterreich"},{"zip":"4084","city":"Ensfeld","country":"AT","long":"13.86212","lat":"48.37234","state":"Oberösterreich"},{"zip":"4084","city":"Henzing","country":"AT","long":"13.89609","lat":"48.38218","state":"Oberösterreich"},{"zip":"4084","city":"Kolmhof","country":"AT","long":"0.00000","lat":"0.00000","state":"Oberösterreich"},{"zip":"4084","city":"Mitterberg","country":"AT"},{"zip":"4084","city":"Schmieding","country":"AT"},{"zip":"4084","city":"Steinzen","country":"AT"},{"zip":"4084","city":"Hausleithen","country":"AT","long":"14.30785","lat":"48.03055","state":"Oberösterreich"},{"zip":"4085","city":"Edt","country":"AT"},{"zip":"4085","city":"Erledt","country":"AT","long":"13.57986","lat":"48.44142","state":"Oberösterreich"},{"zip":"4085","city":"Hundorf","country":"AT","long":"0.00000","lat":"0.00000","state":"Oberösterreich"},{"zip":"4085","city":"Kühdoppl","country":"AT","long":"0.00000","lat":"0.00000","state":"Oberösterreich"},{"zip":"4085","city":"Straß","country":"AT"},{"zip":"4085","city":"Wesenufer","country":"AT"},{"zip":"4085","city":"Wimm","country":"AT"},{"zip":"4085","city":"Atzersdorf","country":"AT","long":"13.79101","lat":"48.44656","state":"Oberösterreich"},{"zip":"4085","city":"Oberngrub","country":"AT","long":"0.00000","lat":"0.00000","state":"Oberösterreich"},{"zip":"4085","city":"Freizell","country":"AT","long":"0.00000","lat":"0.00000","state":"Oberösterreich"},{"zip":"4085","city":"Dankmairing","country":"AT","long":"0.00000","lat":"0.00000","state":"Oberösterreich"},{"zip":"4085","city":"Voredt","country":"AT","long":"0.00000","lat":"0.00000","state":"Oberösterreich"},{"zip":"4085","city":"Kager","country":"AT","long":"0.00000","lat":"0.00000","state":"Oberösterreich"},{"zip":"4085","city":"Ort","country":"AT","long":"13.43991","lat":"47.80364","state":"Oberösterreich"},{"zip":"4085","city":"Ratzling","country":"AT","long":"13.79253","lat":"48.42479","state":"Oberösterreich"},{"zip":"4085","city":"Kling","country":"AT","long":"0.00000","lat":"0.00000","state":"Oberösterreich"},{"zip":"4085","city":"Mühlberg","country":"AT"},{"zip":"4085","city":"Saulehen","country":"AT","long":"13.84588","lat":"48.41465","state":"Oberösterreich"},{"zip":"4085","city":"Waldbach","country":"AT","long":"13.80411","lat":"48.44948","state":"Oberösterreich"},{"zip":"4085","city":"Niederranna","country":"AT","long":"13.78570","lat":"48.46985","state":"Oberösterreich"},{"zip":"4085","city":"Kramesau","country":"AT","long":"0.00000","lat":"0.00000","state":"Oberösterreich"},{"zip":"4085","city":"Graben","country":"AT"},{"zip":"4085","city":"Au","country":"AT","long":"0.00000","lat":"0.00000","state":"Oberösterreich"},{"zip":"4085","city":"Aichberg","country":"AT","long":"13.45184","lat":"48.33261","state":"Oberösterreich"},{"zip":"4085","city":"Buchen","country":"AT","long":"11.12095","lat":"47.33085","state":"Oberösterreich"},{"zip":"4085","city":"Pasching","country":"AT"},{"zip":"4085","city":"Schützenedt","country":"AT","long":"0.00000","lat":"0.00000","state":"Oberösterreich"},{"zip":"4085","city":"Waldkirchen","country":"AT","long":"0.00000","lat":"0.00000","state":"Oberösterreich"},{"zip":"4085","city":"Niederranna","country":"AT","long":"13.78570","lat":"48.46985","state":"Oberösterreich"},{"zip":"4085","city":"Schickedt","country":"AT","long":"0.00000","lat":"0.00000","state":"Oberösterreich"},{"zip":"4085","city":"Sittling","country":"AT","long":"0.00000","lat":"0.00000","state":"Oberösterreich"},{"zip":"4085","city":"Vornwald","country":"AT","long":"0.00000","lat":"0.00000","state":"Oberösterreich"},{"zip":"4090","city":"Kronschlag","country":"AT","long":"0.00000","lat":"0.00000","state":"Oberösterreich"},{"zip":"4090","city":"Engelhartszell","country":"AT","long":"13.72675","lat":"48.50744","state":"Oberösterreich"},{"zip":"4090","city":"Engelszell","country":"AT"},{"zip":"4090","city":"Maierhof","country":"AT"},{"zip":"4090","city":"Saag","country":"AT","long":"13.92956","lat":"48.10756","state":"Oberösterreich"},{"zip":"4090","city":"Stadl","country":"AT"},{"zip":"4090","city":"Ronthal","country":"AT"},{"zip":"4090","city":"Oberranna","country":"AT","long":"15.34423","lat":"48.38343","state":"Oberösterreich"},{"zip":"4091","city":"Rain","country":"AT","long":"0.00000","lat":"0.00000","state":"Oberösterreich"},{"zip":"4091","city":"Wenzelberg","country":"AT","long":"13.66837","lat":"48.52777","state":"Oberösterreich"},{"zip":"4091","city":"Aug","country":"AT","long":"0.00000","lat":"0.00000","state":"Oberösterreich"},{"zip":"4091","city":"Vichtenstein","country":"AT"},{"zip":"4091","city":"Vichtenstein","country":"AT"},{"zip":"4091","city":"Höll","country":"AT"},{"zip":"4091","city":"Kasten","country":"AT","long":"13.65476","lat":"48.54319","state":"Oberösterreich"},{"zip":"4092","city":"Esternberg","country":"AT","long":"13.58757","lat":"48.53618","state":"Oberösterreich"},{"zip":"4092","city":"Silbering","country":"AT","long":"13.55809","lat":"48.53875","state":"Oberösterreich"},{"zip":"4092","city":"Unteresternberg","country":"AT"},{"zip":"4092","city":"Aug","country":"AT","long":"0.00000","lat":"0.00000","state":"Oberösterreich"},{"zip":"4092","city":"Gersdorf","country":"AT"},{"zip":"4092","city":"Reisdorf","country":"AT","long":"13.60266","lat":"48.54261","state":"Oberösterreich"},{"zip":"4092","city":"Dietzendorf","country":"AT","long":"13.58495","lat":"48.55470","state":"Oberösterreich"},{"zip":"4092","city":"Hütt","country":"AT"},{"zip":"4092","city":"Kösslarn","country":"AT"},{"zip":"4092","city":"Winterhof","country":"AT","long":"16.16595","lat":"47.57840","state":"Oberösterreich"},{"zip":"4092","city":"Lanzendorf","country":"AT"},{"zip":"4092","city":"Pyrawang","country":"AT","long":"13.59636","lat":"48.56409","state":"Oberösterreich"},{"zip":"4092","city":"Wetzendorf","country":"AT","long":"0.00000","lat":"0.00000","state":"Oberösterreich"},{"zip":"4092","city":"Schörgeneck","country":"AT","long":"13.58886","lat":"48.54400","state":"Oberösterreich"},{"zip":"4092","city":"Kiesling","country":"AT","long":"0.00000","lat":"0.00000","state":"Oberösterreich"},{"zip":"4092","city":"Pfarrhof","country":"AT","long":"13.59097","lat":"48.52651","state":"Oberösterreich"},{"zip":"4092","city":"Riedlbach","country":"AT","long":"0.00000","lat":"0.00000","state":"Oberösterreich"},{"zip":"4092","city":"Schacher","country":"AT","long":"0.00000","lat":"0.00000","state":"Oberösterreich"},{"zip":"4092","city":"Urschendorf","country":"AT"},{"zip":"4092","city":"Weeg","country":"AT","long":"13.61664","lat":"48.51638","state":"Oberösterreich"},{"zip":"4092","city":"Zeilberg","country":"AT","long":"0.00000","lat":"0.00000","state":"Oberösterreich"},{"zip":"4092","city":"Achleiten","country":"AT"},{"zip":"4092","city":"Ringlholz","country":"AT"},{"zip":"4100","city":"Großamberg","country":"AT","long":"0.00000","lat":"0.00000","state":"Oberösterreich"},{"zip":"4100","city":"Weingarten","country":"AT","long":"0.00000","lat":"0.00000","state":"Oberösterreich"},{"zip":"4100","city":"Amberg","country":"AT","long":"0.00000","lat":"0.00000","state":"Oberösterreich"},{"zip":"4100","city":"Dürnberg","country":"AT","long":"0.00000","lat":"0.00000","state":"Oberösterreich"},{"zip":"4100","city":"Schlagberg","country":"AT","long":"0.00000","lat":"0.00000","state":"Oberösterreich"},{"zip":"4100","city":"Höflein","country":"AT","long":"0.00000","lat":"0.00000","state":"Oberösterreich"},{"zip":"4100","city":"Ottensheim","country":"AT","long":"0.00000","lat":"0.00000","state":"Oberösterreich"},{"zip":"4100","city":"Niederottensheim","country":"AT","long":"0.00000","lat":"0.00000","state":"Oberösterreich"}]